[
    { "name": "김밥천국(모란점)", "address": "경기도 성남시 중원구 광명로 24", "lat": 37.43371, "lng": 127.12932 },
    { "name": "오가네칼국수", "address": "경기도 성남시 수정구 수정로171번길 5", "lat": 37.44431, "lng": 127.14449 },
    { "name": "삭스클럽", "address": "경기도 성남시 분당구 야탑로81번길 14", "lat": 37.41031, "lng": 127.12942 },
    { "name": "유가네손칼국수", "address": "경기도 성남시 수정구 시민로 124", "lat": 37.43981, "lng": 127.14283 },
    { "name": "만나김밥", "address": "경기도 성남시 수정구 산성대로 217", "lat": 37.4447, "lng": 127.1441 },
    { "name": "안나푸르나", "address": "경기도 성남시 분당구 판교역로192번길 12", "lat": 37.3958, "lng": 127.1114 },
    { "name": "장수손만두", "address": "경기도 성남시 수정구 수정로 288", "lat": 37.4526, "lng": 127.1517 },
    { "name": "이가네양꼬치", "address": "경기도 성남시 중원구 산성대로380번길 10", "lat": 37.4435, "lng": 127.1408 },
    { "name": "궁중삼계탕", "address": "경기도 성남시 분당구 돌마로 87", "lat": 37.3822, "lng": 127.1192 },
    { "name": "착한쭝식", "address": "경기도 성남시 중원구 둔촌대로 123", "lat": 37.4305, "lng": 127.1438 },
    { "name": "고향손칼국수", "address": "경기도 성남시 중원구 희망로361번길 9", "lat": 37.4468, "lng": 127.1561 },
    { "name": "이모네손칼국수", "address": "경기도 성남시 중원구 제일로35번길 53", "lat": 37.4359, "lng": 127.1362 },
    { "name": "홍루이젠 성남모란점", "address": "경기도 성남시 중원구 성남대로 1138", "lat": 37.4332, "lng": 127.1287 },
    { "name": "수타원", "address": "경기도 성남시 분당구 판교로 376", "lat": 37.4098, "lng": 127.1002 },
    { "name": "황해만두", "address": "경기도 성남시 분당구 미금일로74번길 13-1", "lat": 37.3735, "lng": 127.1084 },
    { "name": "전주콩나물국밥", "address": "경기도 성남시 수정구 위례광장로 320", "lat": 37.4795, "lng": 127.1421 },
    { "name": "명동칼국수", "address": "경기도 성남시 수정구 태평로 54", "lat": 37.4419, "lng": 127.1495 },
    { "name": "대성암", "address": "경기도 성남시 중원구 광명로 248", "lat": 37.4371, "lng": 127.1275 },
    { "name": "스시생", "address": "경기도 성남시 분당구 정자일로 210", "lat": 37.3692, "lng": 127.1075 },
    { "name": "황실짜장", "address": "경기도 성남시 중원구 금빛로24번길 14", "lat": 37.4440, "lng": 127.1378 }
]
